[{"name":"Williamsburg Northside Preschool","location":{"type":"Point","coordinates":[-73.9586642884,40.7165696588]},"place":"school"},{"name":"Electrical Industry Training Center","location":{"type":"Point","coordinates":[-73.9321899414,40.7396087646]},"place":"school"},{"name":"Frank Sinatra School of the Arts","location":{"type":"Point","coordinates":[-73.9247837874,40.7563383507]},"place":"school"},{"name":"P.S. 199Q (Maurice A. Fitzgerald Elementary School)","location":{"type":"Point","coordinates":[-73.925599,40.740169]},"place":"school"},{"name":"St. Cecilia School","location":{"type":"Point","coordinates":[-73.942118,40.719544]},"place":"school"},{"name":"ABC Child Center Inc.","location":{"type":"Point","coordinates":[-73.9496558895,40.7241832757]},"place":"school"},{"name":"PS 31","location":{"type":"Point","coordinates":[-73.9538426921,40.7272206864]},"place":"school"},{"name":"Hanac Taxi Academy","location":{"type":"Point","coordinates":[-73.9291708386,40.7447307944]},"place":"school"},{"name":"Intermediate School 125","location":{"type":"Point","coordinates":[-73.918762207,40.7404518127]},"place":"school"},{"name":"The Ardor School","location":{"type":"Point","coordinates":[-73.953593,40.722832]},"place":"school"},{"name":"Greenpoint Shul","location":{"type":"Point","coordinates":[-73.95639,40.72843085]},"place":"school"},{"name":"Art Law School","location":{"type":"Point","coordinates":[-73.9348081694,40.7139251199]},"place":"school"},{"name":"Sunnyside Ballet Studio","location":{"type":"Point","coordinates":[-73.9187855512,40.7425889363]},"place":"school"},{"name":"P.S. 150Q","location":{"type":"Point","coordinates":[-73.9235125579,40.7460682399]},"place":"school"},{"name":"PS 132","location":{"type":"Point","coordinates":[-73.9460650745,40.7146566953]},"place":"school"},{"name":"City Gan Early Childhood Center","location":{"type":"Point","coordinates":[-73.9532928467,40.7434806824]},"place":"school"},{"name":"P.S.18","location":{"type":"Point","coordinates":[-73.9468630109,40.7139697467]},"place":"school"},{"name":"Queen Of The Rosary Catholic Academy","location":{"type":"Point","coordinates":[-73.952701,40.716521]},"place":"school"},{"name":"The Teaching Studios Of Art","location":{"type":"Point","coordinates":[-73.9352616747,40.7111794497]},"place":"school"},{"name":"NY Kids Club - Court Square","location":{"type":"Point","coordinates":[-73.9448866,40.7486481]},"place":"school"},{"name":"HQpixel : Photo Studio","location":{"type":"Point","coordinates":[-73.936272,40.710964]},"place":"school"},{"name":"Coucou Brooklyn","location":{"type":"Point","coordinates":[-73.9550788701,40.7129704544]},"place":"school"},{"name":"QBI","location":{"type":"Point","coordinates":[-73.9310379028,40.7516365051]},"place":"school"},{"name":"BrickHouse Ceramic Art Center","location":{"type":"Point","coordinates":[-73.9504102375,40.7485862765]},"place":"school"},{"name":"Lyons Community School","location":{"type":"Point","coordinates":[-73.9437804871,40.7101902286]},"place":"school"},{"name":"LaGuardia Community College","location":{"type":"Point","coordinates":[-73.934745023,40.7446375123]},"place":"school"},{"name":"PS 18","location":{"type":"Point","coordinates":[-73.9470388786,40.7106957528]},"place":"school"},{"name":"P.S. 196","location":{"type":"Point","coordinates":[-73.9400492475,40.7089731816]},"place":"school"},{"name":"MS582","location":{"type":"Point","coordinates":[-73.9399843557,40.7087234717]},"place":"school"},{"name":"IS 204 Q The Holmes School","location":{"type":"Point","coordinates":[-73.9330267365,40.7566713547]},"place":"school"}]