[{"name":"Williamsburg Northside Preschool","location":{"type":"Point","coordinates":[-73.9586642884,40.7165696588]},"place":"school"},{"name":"Electrical Industry Training Center","location":{"type":"Point","coordinates":[-73.9321899414,40.7396087646]},"place":"school"},{"name":"Frank Sinatra School of the Arts","location":{"type":"Point","coordinates":[-73.9247837874,40.7563383507]},"place":"school"},{"name":"P.S. 199Q (Maurice A. Fitzgerald Elementary School)","location":{"type":"Point","coordinates":[-73.925599,40.740169]},"place":"school"},{"name":"St. Cecilia School","location":{"type":"Point","coordinates":[-73.942118,40.719544]},"place":"school"},{"name":"ABC Child Center Inc.","location":{"type":"Point","coordinates":[-73.9496558895,40.7241832757]},"place":"school"},{"name":"PS 31","location":{"type":"Point","coordinates":[-73.9538426921,40.7272206864]},"place":"school"},{"name":"Hanac Taxi Academy","location":{"type":"Point","coordinates":[-73.9291708386,40.7447307944]},"place":"school"},{"name":"Intermediate School 125","location":{"type":"Point","coordinates":[-73.918762207,40.7404518127]},"place":"school"},{"name":"The Ardor School","location":{"type":"Point","coordinates":[-73.953593,40.722832]},"place":"school"},{"name":"Greenpoint Shul","location":{"type":"Point","coordinates":[-73.95639,40.72843085]},"place":"school"},{"name":"Art Law School","location":{"type":"Point","coordinates":[-73.9348081694,40.7139251199]},"place":"school"},{"name":"Sunnyside Ballet Studio","location":{"type":"Point","coordinates":[-73.9187855512,40.7425889363]},"place":"school"},{"name":"P.S. 150Q","location":{"type":"Point","coordinates":[-73.9235125579,40.7460682399]},"place":"school"},{"name":"PS 132","location":{"type":"Point","coordinates":[-73.9460650745,40.7146566953]},"place":"school"},{"name":"City Gan Early Childhood Center","location":{"type":"Point","coordinates":[-73.9532928467,40.7434806824]},"place":"school"},{"name":"P.S.18","location":{"type":"Point","coordinates":[-73.9468630109,40.7139697467]},"place":"school"},{"name":"Queen Of The Rosary Catholic Academy","location":{"type":"Point","coordinates":[-73.952701,40.716521]},"place":"school"},{"name":"The Teaching Studios Of Art","location":{"type":"Point","coordinates":[-73.9352616747,40.7111794497]},"place":"school"},{"name":"NY Kids Club - Court Square","location":{"type":"Point","coordinates":[-73.9448866,40.7486481]},"place":"school"},{"name":"HQpixel : Photo Studio","location":{"type":"Point","coordinates":[-73.936272,40.710964]},"place":"school"},{"name":"Coucou Brooklyn","location":{"type":"Point","coordinates":[-73.9550788701,40.7129704544]},"place":"school"},{"name":"QBI","location":{"type":"Point","coordinates":[-73.9310379028,40.7516365051]},"place":"school"},{"name":"BrickHouse Ceramic Art Center","location":{"type":"Point","coordinates":[-73.9504102375,40.7485862765]},"place":"school"},{"name":"Lyons Community School","location":{"type":"Point","coordinates":[-73.9437804871,40.7101902286]},"place":"school"},{"name":"LaGuardia Community College","location":{"type":"Point","coordinates":[-73.934745023,40.7446375123]},"place":"school"},{"name":"PS 18","location":{"type":"Point","coordinates":[-73.9470388786,40.7106957528]},"place":"school"},{"name":"P.S. 196","location":{"type":"Point","coordinates":[-73.9400492475,40.7089731816]},"place":"school"},{"name":"MS582","location":{"type":"Point","coordinates":[-73.9399843557,40.7087234717]},"place":"school"},{"name":"IS 204 Q The Holmes School","location":{"type":"Point","coordinates":[-73.9330267365,40.7566713547]},"place":"school"},{"name":"Aviation High School","location":{"type":"Point","coordinates":[-73.9293837547,40.7428981125]},"place":"school"},{"name":"New York City Board Of Education","location":{"type":"Point","coordinates":[-73.9504547119,40.7504997253]},"place":"school"},{"name":"Evangel Christian School","location":{"type":"Point","coordinates":[-73.936842,40.75383]},"place":"school"},{"name":"Brooklyn Music School","location":{"type":"Point","coordinates":[-73.9772833621,40.6861161789]},"place":"school"},{"name":"ALOHA Mind Math","location":{"type":"Point","coordinates":[-73.9593963623,40.7135009766]},"place":"school"},{"name":"The Baccalaureate School For Global Education","location":{"type":"Point","coordinates":[-73.9269663796,40.7550836803]},"place":"school"},{"name":"Young Women's Leadership School of Brooklyn","location":{"type":"Point","coordinates":[-73.938703,40.705028]},"place":"school"},{"name":"Roberto Clemente Magnet School","location":{"type":"Point","coordinates":[-73.955198,40.709777]},"place":"school"},{"name":"P.S. 112 Dutch Kills","location":{"type":"Point","coordinates":[-73.9342140837,40.7568639816]},"place":"school"},{"name":"Okabaloo","location":{"type":"Point","coordinates":[-73.929022,40.756545]},"place":"school"},{"name":"P.S.290Q A.C.E. Academy for Scholars at the Geraldine Ferraro Campus","location":{"type":"Point","coordinates":[-73.9087187007,40.7128591611]},"place":"school"},{"name":"PS 84","location":{"type":"Point","coordinates":[-73.9637872365,40.7147199059]},"place":"school"},{"name":"RQM Tutorial Astoria","location":{"type":"Point","coordinates":[-73.9297914505,40.7571725369]},"place":"school"},{"name":"Grand Street Campus","location":{"type":"Point","coordinates":[-73.940085444,40.7112115964]},"place":"school"},{"name":"P.S. 204 Park","location":{"type":"Point","coordinates":[-73.9326324463,40.7574882507]},"place":"school"},{"name":"Tiger Academy @GCHS","location":{"type":"Point","coordinates":[-73.9094216684,40.7114012599]},"place":"school"},{"name":"P.S. 153","location":{"type":"Point","coordinates":[-73.903789343,40.7165559839]},"place":"school"},{"name":"P.S. 111","location":{"type":"Point","coordinates":[-73.9397312277,40.7582728716]},"place":"school"},{"name":"PS 166","location":{"type":"Point","coordinates":[-73.9263355852,40.7578033809]},"place":"school"},{"name":"Public School 110","location":{"type":"Point","coordinates":[-73.94204,40.723655]},"place":"school"},{"name":"P.S. 166Q","location":{"type":"Point","coordinates":[-73.9257895097,40.7577792878]},"place":"school"},{"name":"Automotive High School","location":{"type":"Point","coordinates":[-73.9532517724,40.7223865189]},"place":"school"},{"name":"Sylvan Learning of Astoria","location":{"type":"Point","coordinates":[-73.9206771851,40.7573013306]},"place":"school"},{"name":"PS 229Q","location":{"type":"Point","coordinates":[-73.8972197841,40.7349352774]},"place":"school"},{"name":"Tata Innovation Center at Cornell Tech","location":{"type":"Point","coordinates":[-73.9557414329,40.7553280005]},"place":"school"},{"name":"British International School","location":{"type":"Point","coordinates":[-73.972876,40.736898]},"place":"school"},{"name":"Queens Technical High School","location":{"type":"Point","coordinates":[-73.9277184244,40.7418996156]},"place":"school"},{"name":"United Nations International School (UNIS)","location":{"type":"Point","coordinates":[-73.9734475054,40.7362744386]},"place":"school"},{"name":"Classeteria","location":{"type":"Point","coordinates":[-73.923164,40.702482]},"place":"school"},{"name":"P.S. 34 FDR School","location":{"type":"Point","coordinates":[-73.9748029548,40.7262280933]},"place":"school"},{"name":"PS 76Q","location":{"type":"Point","coordinates":[-73.9416275024,40.760848999]},"place":"school"},{"name":"Ahrc wendy siegel center","location":{"type":"Point","coordinates":[-73.9362335205,40.6999092102]},"place":"school"},{"name":"The Child School \/ Legacy High School","location":{"type":"Point","coordinates":[-73.9525170468,40.7585437753]},"place":"school"},{"name":"PS 34","location":{"type":"Point","coordinates":[-73.9494346132,40.7261637602]},"place":"school"},{"name":"FasTracKids\/JEI Learning Center","location":{"type":"Point","coordinates":[-73.96629,40.7103]},"place":"school"},{"name":"PS 380 - John Wayne School","location":{"type":"Point","coordinates":[-73.9532708567,40.7024776128]},"place":"school"},{"name":"PS 281","location":{"type":"Point","coordinates":[-73.9724299853,40.7442074644]},"place":"school"},{"name":"Notre Dame Catholic Academy of Ridgewood","location":{"type":"Point","coordinates":[-73.902173823,40.7114725249]},"place":"school"},{"name":"MS 126 John Ericsson \/ Williamsburg Charter School","location":{"type":"Point","coordinates":[-73.9485334082,40.7196327237]},"place":"school"},{"name":"Preschool Of America","location":{"type":"Point","coordinates":[-73.9701066706,40.7489142741]},"place":"school"},{"name":"Cheri Zeldis Tutoring","location":{"type":"Point","coordinates":[-73.9705581665,40.7486763]},"place":"school"},{"name":"WFUNA International Model United Nations","location":{"type":"Point","coordinates":[-73.9689946,40.7503513]},"place":"school"},{"name":"Frances Perkins Academy","location":{"type":"Point","coordinates":[-73.953188632,40.7222938572]},"place":"school"},{"name":"Queensview Nursery School &  Kindergarten","location":{"type":"Point","coordinates":[-73.9316336031,40.7632559483]},"place":"school"},{"name":"East Village Community School","location":{"type":"Point","coordinates":[-73.9789309673,40.7281078368]},"place":"school"},{"name":"Sheltering Arms Williamsburg Day Care","location":{"type":"Point","coordinates":[-73.963714,40.705242]},"place":"school"},{"name":"CWS","location":{"type":"Point","coordinates":[-73.979326,40.727987]},"place":"school"},{"name":"STREB Lab for Action Mechanics","location":{"type":"Point","coordinates":[-73.9648334087,40.7168847143]},"place":"school"},{"name":"Garden House School of New York","location":{"type":"Point","coordinates":[-73.960119,40.758617]},"place":"school"},{"name":"The Churchill School And Center","location":{"type":"Point","coordinates":[-73.9775927118,40.7414304569]},"place":"school"},{"name":"James B Colgate School, PS 12 Queens","location":{"type":"Point","coordinates":[-73.8932132223,40.7421824792]},"place":"school"},{"name":"Kumon Math and Reading Center of Astoria","location":{"type":"Point","coordinates":[-73.929629,40.764359]},"place":"school"},{"name":"NY Kids Club - Sutton Place","location":{"type":"Point","coordinates":[-73.9634747,40.7571173]},"place":"school"},{"name":"PS 31 Samuel F. Dupont School","location":{"type":"Point","coordinates":[-73.9540509032,40.7267150291]},"place":"school"},{"name":"Long Island City High School","location":{"type":"Point","coordinates":[-73.9325061835,40.7656082099]},"place":"school"},{"name":"P.S. 15","location":{"type":"Point","coordinates":[-73.978998737,40.7218610032]},"place":"school"},{"name":"P.S. 343- The Children's Lab School","location":{"type":"Point","coordinates":[-73.9228386924,40.7422476345]},"place":"school"},{"name":"PS 58 School Of Heroes","location":{"type":"Point","coordinates":[-73.8895627638,40.728458993]},"place":"school"},{"name":"Mary Lindley Murray School - PS 116","location":{"type":"Point","coordinates":[-73.9774444549,40.7446186972]},"place":"school"},{"name":"Rennert International","location":{"type":"Point","coordinates":[-73.972174,40.752074]},"place":"school"},{"name":"P.S. 70","location":{"type":"Point","coordinates":[-73.9134398819,40.7617801952]},"place":"school"},{"name":"P.S. 40","location":{"type":"Point","coordinates":[-73.9814564135,40.7356355654]},"place":"school"},{"name":"C.C.B. School - Headquarters","location":{"type":"Point","coordinates":[-73.8913269043,40.742729187]},"place":"school"},{"name":"Botox Training Manhattan","location":{"type":"Point","coordinates":[-73.9810544,40.7382765]},"place":"school"},{"name":"Immaculate Conception School","location":{"type":"Point","coordinates":[-73.982261,40.730507]},"place":"school"},{"name":"PS 64","location":{"type":"Point","coordinates":[-73.9816169257,40.7244697177]},"place":"school"},{"name":"EBT HIGH SCHOOL","location":{"type":"Point","coordinates":[-73.939268,40.711722]},"place":"school"},{"name":"El puente academy","location":{"type":"Point","coordinates":[-73.955535,40.705645]},"place":"school"},{"name":"Dewitt Head Start","location":{"type":"Point","coordinates":[-73.979452,40.717569]},"place":"school"},{"name":"I.S. 126","location":{"type":"Point","coordinates":[-73.9300549115,40.7663732843]},"place":"school"}]