[{"name":"Craft Haven","location":{"type":"Point","coordinates":[-122.4297673162,37.7748117458]},"place":"school"},{"name":"AltSchool Alamo Square","location":{"type":"Point","coordinates":[-122.430143,37.774845]},"place":"school"},{"name":"University Tutor - San Francisco","location":{"type":"Point","coordinates":[-122.435059,37.773671]},"place":"school"},{"name":"Soko Gakuen Japanese Language School","location":{"type":"Point","coordinates":[-122.4265644515,37.7884530549]},"place":"school"},{"name":"Varsity Tutors - San Francisco","location":{"type":"Point","coordinates":[-122.437294,37.77668]},"place":"school"},{"name":"SAT Marketplace","location":{"type":"Point","coordinates":[-122.4247407,37.771707]},"place":"school"},{"name":"CAIS Waller St. Campus","location":{"type":"Point","coordinates":[-122.4244440795,37.7720712527]},"place":"school"},{"name":"Jennifer Miller | Math Tutor in San Francisco, CA","location":{"type":"Point","coordinates":[-122.438618,37.773467]},"place":"school"},{"name":"San Francisco Friends School","location":{"type":"Point","coordinates":[-122.4228142159,37.7689109655]},"place":"school"},{"name":"Alta Vista School","location":{"type":"Point","coordinates":[-122.42181,37.768822]},"place":"school"},{"name":"Phoebe Hearst","location":{"type":"Point","coordinates":[-122.4281206997,37.7829042778]},"place":"school"},{"name":"SFUSD-Van Ness","location":{"type":"Point","coordinates":[-122.4195991662,37.776557465]},"place":"school"},{"name":"KIPP SF Bay","location":{"type":"Point","coordinates":[-122.4371496619,37.7828225924]},"place":"school"},{"name":"Mission Montessori","location":{"type":"Point","coordinates":[-122.418816,37.776597]},"place":"school"},{"name":"Transcendental Meditation SF","location":{"type":"Point","coordinates":[-122.421104,37.78049]},"place":"school"},{"name":"City College: Castro Campus Rm 119","location":{"type":"Point","coordinates":[-122.4291381836,37.7637443542]},"place":"school"},{"name":"826 Valencia Writing Room at Everett","location":{"type":"Point","coordinates":[-122.4291381836,37.7637443542]},"place":"school"},{"name":"SuperMath","location":{"type":"Point","coordinates":[-122.4314152556,37.7848617957]},"place":"school"},{"name":"Children's Day School","location":{"type":"Point","coordinates":[-122.4250882041,37.7640351414]},"place":"school"},{"name":"Ida B. Wells High School","location":{"type":"Point","coordinates":[-122.4344815706,37.7752869709]},"place":"school"},{"name":"McKinley Elementary School","location":{"type":"Point","coordinates":[-122.4361164464,37.7671859598]},"place":"school"},{"name":"Tenderloin Community School","location":{"type":"Point","coordinates":[-122.4197076884,37.7816531087]},"place":"school"},{"name":"FACESsf","location":{"type":"Point","coordinates":[-122.4460689246,37.770935232]},"place":"school"},{"name":"John Muir Elementary School","location":{"type":"Point","coordinates":[-122.4283626762,37.7736242219]},"place":"school"},{"name":"The Arc of San Francisco","location":{"type":"Point","coordinates":[-122.4158126664,37.7731773179]},"place":"school"},{"name":"Advance English Academy","location":{"type":"Point","coordinates":[-122.4158248,37.775916]},"place":"school"},{"name":"San Francisco Day School","location":{"type":"Point","coordinates":[-122.4461612253,37.7778963592]},"place":"school"},{"name":"Hackbright Academy","location":{"type":"Point","coordinates":[-122.4193721967,37.7648922851]},"place":"school"},{"name":"Interview Cake","location":{"type":"Point","coordinates":[-122.4189605713,37.7647743225]},"place":"school"},{"name":"International High School","location":{"type":"Point","coordinates":[-122.4218022823,37.7753875136]},"place":"school"}]