[{"name":"Craft Haven","location":{"type":"Point","coordinates":[-122.4297673162,37.7748117458]},"place":"school"},{"name":"AltSchool Alamo Square","location":{"type":"Point","coordinates":[-122.430143,37.774845]},"place":"school"},{"name":"University Tutor - San Francisco","location":{"type":"Point","coordinates":[-122.435059,37.773671]},"place":"school"},{"name":"Soko Gakuen Japanese Language School","location":{"type":"Point","coordinates":[-122.4265644515,37.7884530549]},"place":"school"},{"name":"Varsity Tutors - San Francisco","location":{"type":"Point","coordinates":[-122.437294,37.77668]},"place":"school"},{"name":"SAT Marketplace","location":{"type":"Point","coordinates":[-122.4247407,37.771707]},"place":"school"},{"name":"CAIS Waller St. Campus","location":{"type":"Point","coordinates":[-122.4244440795,37.7720712527]},"place":"school"},{"name":"Jennifer Miller | Math Tutor in San Francisco, CA","location":{"type":"Point","coordinates":[-122.438618,37.773467]},"place":"school"},{"name":"San Francisco Friends School","location":{"type":"Point","coordinates":[-122.4228142159,37.7689109655]},"place":"school"},{"name":"Alta Vista School","location":{"type":"Point","coordinates":[-122.42181,37.768822]},"place":"school"},{"name":"Phoebe Hearst","location":{"type":"Point","coordinates":[-122.4281206997,37.7829042778]},"place":"school"},{"name":"SFUSD-Van Ness","location":{"type":"Point","coordinates":[-122.4195991662,37.776557465]},"place":"school"},{"name":"KIPP SF Bay","location":{"type":"Point","coordinates":[-122.4371496619,37.7828225924]},"place":"school"},{"name":"Mission Montessori","location":{"type":"Point","coordinates":[-122.418816,37.776597]},"place":"school"},{"name":"Transcendental Meditation SF","location":{"type":"Point","coordinates":[-122.421104,37.78049]},"place":"school"},{"name":"City College: Castro Campus Rm 119","location":{"type":"Point","coordinates":[-122.4291381836,37.7637443542]},"place":"school"},{"name":"826 Valencia Writing Room at Everett","location":{"type":"Point","coordinates":[-122.4291381836,37.7637443542]},"place":"school"},{"name":"SuperMath","location":{"type":"Point","coordinates":[-122.4314152556,37.7848617957]},"place":"school"},{"name":"Children's Day School","location":{"type":"Point","coordinates":[-122.4250882041,37.7640351414]},"place":"school"},{"name":"Ida B. Wells High School","location":{"type":"Point","coordinates":[-122.4344815706,37.7752869709]},"place":"school"},{"name":"McKinley Elementary School","location":{"type":"Point","coordinates":[-122.4361164464,37.7671859598]},"place":"school"},{"name":"Tenderloin Community School","location":{"type":"Point","coordinates":[-122.4197076884,37.7816531087]},"place":"school"},{"name":"FACESsf","location":{"type":"Point","coordinates":[-122.4460689246,37.770935232]},"place":"school"},{"name":"John Muir Elementary School","location":{"type":"Point","coordinates":[-122.4283626762,37.7736242219]},"place":"school"},{"name":"The Arc of San Francisco","location":{"type":"Point","coordinates":[-122.4158126664,37.7731773179]},"place":"school"},{"name":"Advance English Academy","location":{"type":"Point","coordinates":[-122.4158248,37.775916]},"place":"school"},{"name":"San Francisco Day School","location":{"type":"Point","coordinates":[-122.4461612253,37.7778963592]},"place":"school"},{"name":"Hackbright Academy","location":{"type":"Point","coordinates":[-122.4193721967,37.7648922851]},"place":"school"},{"name":"Interview Cake","location":{"type":"Point","coordinates":[-122.4189605713,37.7647743225]},"place":"school"},{"name":"International High School","location":{"type":"Point","coordinates":[-122.4218022823,37.7753875136]},"place":"school"},{"name":"the cocktail camp","location":{"type":"Point","coordinates":[-122.417919,37.764943]},"place":"school"},{"name":"Presidio Knolls School","location":{"type":"Point","coordinates":[-122.4135993497,37.7732324114]},"place":"school"},{"name":"bay area motorcycle school","location":{"type":"Point","coordinates":[-122.4132584167,37.77425886]},"place":"school"},{"name":"Light House for the Blind and Visually Impaired","location":{"type":"Point","coordinates":[-122.4141602,37.7791869135]},"place":"school"},{"name":"Jamaroo Kids","location":{"type":"Point","coordinates":[-122.4288825058,37.7886030504]},"place":"school"},{"name":"The Little School","location":{"type":"Point","coordinates":[-122.444637,37.785145]},"place":"school"},{"name":"Gateway High School","location":{"type":"Point","coordinates":[-122.4362477808,37.7835616054]},"place":"school"},{"name":"French American International School","location":{"type":"Point","coordinates":[-122.421671023,37.7756241556]},"place":"school"},{"name":"De Marillac Academy","location":{"type":"Point","coordinates":[-122.4133045923,37.7818839834]},"place":"school"},{"name":"AltSchool","location":{"type":"Point","coordinates":[-122.4105158079,37.7742755382]},"place":"school"},{"name":"Fakir Musafar Intensive","location":{"type":"Point","coordinates":[-122.4103384821,37.7749567118]},"place":"school"},{"name":"General Assembly","location":{"type":"Point","coordinates":[-122.4104237494,37.7766888628]},"place":"school"},{"name":"Creative Arts Charter School","location":{"type":"Point","coordinates":[-122.4361252785,37.7797716819]},"place":"school"},{"name":"Sips n Sews","location":{"type":"Point","coordinates":[-122.4192431193,37.7881265324]},"place":"school"},{"name":"Chinese American International School","location":{"type":"Point","coordinates":[-122.4221108478,37.7752754784]},"place":"school"},{"name":"Jewish Community High School of the Bay","location":{"type":"Point","coordinates":[-122.436441864,37.7817143302]},"place":"school"},{"name":"Horizons School of Technology","location":{"type":"Point","coordinates":[-122.4093527704,37.7718607781]},"place":"school"},{"name":"Civic Center Secondary School","location":{"type":"Point","coordinates":[-122.4229812622,37.7802391052]},"place":"school"},{"name":"Golden Gate Knights","location":{"type":"Point","coordinates":[-122.4083805084,37.7744546783]},"place":"school"},{"name":"Everett Middle School","location":{"type":"Point","coordinates":[-122.4287940244,37.7636513417]},"place":"school"},{"name":"Gateway Middle School","location":{"type":"Point","coordinates":[-122.435971,37.779429]},"place":"school"},{"name":"Alliance Fran\u00e7aise de San Francisco","location":{"type":"Point","coordinates":[-122.4193636637,37.78879995]},"place":"school"},{"name":"Grand View Studio","location":{"type":"Point","coordinates":[-122.4406051636,37.7569770813]},"place":"school"},{"name":"Casa Hispana","location":{"type":"Point","coordinates":[-122.4205413648,37.7721627921]},"place":"school"},{"name":"Mission High School","location":{"type":"Point","coordinates":[-122.4270741514,37.7615711421]},"place":"school"},{"name":"Rosa Parks Elementary School","location":{"type":"Point","coordinates":[-122.4298596382,37.7829091282]},"place":"school"},{"name":"Raoul Wallenberg Traditional High School","location":{"type":"Point","coordinates":[-122.4460243781,37.7801669022]},"place":"school"},{"name":"John Swett Alternative Elementary School","location":{"type":"Point","coordinates":[-122.422916,37.780412]},"place":"school"},{"name":"Children's Day School (Middle School) Extension","location":{"type":"Point","coordinates":[-122.4256002903,37.7596591848]},"place":"school"},{"name":"Sacred Heart Cathedral Preparatory","location":{"type":"Point","coordinates":[-122.4237010277,37.7831028629]},"place":"school"},{"name":"Mission Dolores Academy","location":{"type":"Point","coordinates":[-122.4268197626,37.7645602056]},"place":"school"},{"name":"Sanchez Elementary School","location":{"type":"Point","coordinates":[-122.4308252318,37.7637234215]},"place":"school"},{"name":"USF - University of San Francisco","location":{"type":"Point","coordinates":[-122.4506300871,37.7761066506]},"place":"school"},{"name":"Urban School of San Francisco","location":{"type":"Point","coordinates":[-122.4463761311,37.770901709]},"place":"school"},{"name":"Grace Cathedral","location":{"type":"Point","coordinates":[-122.4133484531,37.7916658246]},"place":"school"},{"name":"Carillon Towers","location":{"type":"Point","coordinates":[-122.4238023406,37.7837179198]},"place":"school"},{"name":"William L. Cobb Elementary","location":{"type":"Point","coordinates":[-122.4394387927,37.78746016]},"place":"school"},{"name":"CAIS Middle School Campus","location":{"type":"Point","coordinates":[-122.4235394292,37.7817300637]},"place":"school"},{"name":"Montessori House Of Children","location":{"type":"Point","coordinates":[-122.4235665733,37.785235948]},"place":"school"},{"name":"Marin Preparatory School","location":{"type":"Point","coordinates":[-122.436896,37.760227]},"place":"school"},{"name":"Marshall Elementary","location":{"type":"Point","coordinates":[-122.4188249841,37.7663023655]},"place":"school"},{"name":"Lycee Francais La Perouse","location":{"type":"Point","coordinates":[-122.4473343057,37.7680227223]},"place":"school"},{"name":"Marin Day Schools Sherith Israel","location":{"type":"Point","coordinates":[-122.4319931,37.7893367]},"place":"school"},{"name":"Rocky Mountain School","location":{"type":"Point","coordinates":[-122.4381408691,37.7660217285]},"place":"school"},{"name":"LePort School","location":{"type":"Point","coordinates":[-122.4188865312,37.7764859207]},"place":"school"},{"name":"Stuart Hall High School","location":{"type":"Point","coordinates":[-122.4271798629,37.7886468045]},"place":"school"},{"name":"Morning Glory Nursery School","location":{"type":"Point","coordinates":[-122.443699,37.776355]},"place":"school"},{"name":"French American International School","location":{"type":"Point","coordinates":[-122.43972,37.771718]},"place":"school"},{"name":"USF - School of Management","location":{"type":"Point","coordinates":[-122.450284,37.775837]},"place":"school"},{"name":"USF - School of Education","location":{"type":"Point","coordinates":[-122.4486936188,37.7786607782]},"place":"school"},{"name":"Intercultural Institute of California","location":{"type":"Point","coordinates":[-122.4237373364,37.7884010116]},"place":"school"},{"name":"Grattan School","location":{"type":"Point","coordinates":[-122.4504384858,37.7638528638]},"place":"school"},{"name":"Drew School","location":{"type":"Point","coordinates":[-122.4423709479,37.7877760794]},"place":"school"},{"name":"New Traditions Elementary School","location":{"type":"Point","coordinates":[-122.4503536397,37.774211271]},"place":"school"},{"name":"David E. Snodgrass Hall","location":{"type":"Point","coordinates":[-122.4150162935,37.7810987532]},"place":"school"},{"name":"SF Spanish","location":{"type":"Point","coordinates":[-122.4323272705,37.7828636169]},"place":"school"},{"name":"C5 Children's School","location":{"type":"Point","coordinates":[-122.4145837313,37.7788640785]},"place":"school"},{"name":"Spanishblackbelt","location":{"type":"Point","coordinates":[-122.4198532104,37.7760620117]},"place":"school"},{"name":"NOPA Montessori","location":{"type":"Point","coordinates":[-122.451285,37.773393]},"place":"school"},{"name":"Japanese YWCA Building \/ Nihonmachi Little Friends","location":{"type":"Point","coordinates":[-122.4306089103,37.7870166338]},"place":"school"},{"name":"Chibi Chan Preschool","location":{"type":"Point","coordinates":[-122.4372678995,37.787172026]},"place":"school"},{"name":"Chibi Chan Too","location":{"type":"Point","coordinates":[-122.445756,37.783331]},"place":"school"},{"name":"Redding Elementary School","location":{"type":"Point","coordinates":[-122.4189942422,37.7896898855]},"place":"school"},{"name":"Golden Gate Guppies Preschool","location":{"type":"Point","coordinates":[-122.4345092773,37.7891235352]},"place":"school"},{"name":"Judith Baker CD","location":{"type":"Point","coordinates":[-122.4118021663,37.7768392381]},"place":"school"},{"name":"Bradfield School of Computer Science","location":{"type":"Point","coordinates":[-122.4102692653,37.7772039425]},"place":"school"},{"name":"Theresa S. Mahler Child Development Center","location":{"type":"Point","coordinates":[-122.428081,37.755262]},"place":"school"},{"name":"Neighborhood Playgarden","location":{"type":"Point","coordinates":[-122.4406664618,37.7568285039]},"place":"school"},{"name":"Cathedral School for Boys","location":{"type":"Point","coordinates":[-122.4144037362,37.7921275577]},"place":"school"},{"name":"San Francisco Conservatory of Music","location":{"type":"Point","coordinates":[-122.4203807116,37.7754892767]},"place":"school"}]